[
  {
    "icao": "KJFK",
    "name": "John F. Kennedy International Airport",
    "class": "major",
    "lat": 40.6413,
    "lng": -73.7781
  },
  {
    "icao": "KLAX",
    "name": "Los Angeles International Airport",
    "class": "major",
    "lat": 33.9416,
    "lng": -118.4085
  },
  {
    "icao": "KORD",
    "name": "Chicago O'Hare International Airport",
    "class": "major",
    "lat": 41.9742,
    "lng": -87.9073
  },
  {
    "icao": "KATL",
    "name": "Hartsfield-Jackson Atlanta International Airport",
    "class": "major",
    "lat": 33.6407,
    "lng": -84.4277
  },
  {
    "icao": "KSEA",
    "name": "Seattle-Tacoma International Airport",
    "class": "major",
    "lat": 47.4502,
    "lng": -122.3088
  },
  {
    "icao": "KDEN",
    "name": "Denver International Airport",
    "class": "major",
    "lat": 39.8561,
    "lng": -104.6737
  },
  {
    "icao": "CYYZ",
    "name": "Toronto Pearson International Airport",
    "class": "major",
    "lat": 43.6777,
    "lng": -79.6248
  },
  {
    "icao": "EGLL",
    "name": "London Heathrow Airport",
    "class": "major",
    "lat": 51.47,
    "lng": -0.4543
  },
  {
    "icao": "LFPG",
    "name": "Paris Charles de Gaulle Airport",
    "class": "major",
    "lat": 49.0097,
    "lng": 2.5479
  },
  {
    "icao": "OMDB",
    "name": "Dubai International Airport",
    "class": "major",
    "lat": 25.2532,
    "lng": 55.3657
  },
  {
    "icao": "RJTT",
    "name": "Tokyo Haneda Airport",
    "class": "major",
    "lat": 35.5494,
    "lng": 139.7798
  },
  {
    "icao": "YSSY",
    "name": "Sydney Kingsford Smith Airport",
    "class": "major",
    "lat": -33.9399,
    "lng": 151.1753
  },
  {
    "icao": "ZBAA",
    "name": "Beijing Capital International Airport",
    "class": "major",
    "lat": 40.0799,
    "lng": 116.6031
  },
  {
    "icao": "PHNL",
    "name": "Daniel K. Inouye International Airport",
    "class": "major",
    "lat": 21.3245,
    "lng": -157.9251
  },
  {
    "icao": "PANC",
    "name": "Ted Stevens Anchorage International Airport",
    "class": "major",
    "lat": 61.1744,
    "lng": -149.9964
  },
  {
    "icao": "SBGR",
    "name": "Sao Paulo-Guarulhos International Airport",
    "class": "major",
    "lat": -23.4356,
    "lng": -46.4731
  }
]
